{
    "type": "FeatureCollection",
    "features": [
        {
            "type": "Feature",
            "properties": {
                "name": "ADIME",
                "desc": ""
            },
            "geometry": {
                "type": "Point",
                "coordinates": [
                    -70.62,
                    42.99
                ]
            }
        },
        {
            "type": "Feature",
            "properties": {
                "name": "AGOCA",
                "desc": ""
            },
            "geometry": {
                "type": "Point",
                "coordinates": [
                    -119.54,
                    35.95
                ]
            }
        },
        {
            "type": "Feature",
            "properties": {
                "name": "ASTOR",
                "desc": ""
            },
            "geometry": {
                "type": "Point",
                "coordinates": [
                    -123.88,
                    46.16
                ]
            }
        },
        {
            "type": "Feature",
            "properties": {
                "name": "BBBCA",
                "desc": ""
            },
            "geometry": {
                "type": "Point",
                "coordinates": [
                    -123.07,
                    38.32
                ]
            }
        },
        {
            "type": "Feature",
            "properties": {
                "name": "BHBME",
                "desc": ""
            },
            "geometry": {
                "type": "Point",
                "coordinates": [
                    -68.4,
                    44.4
                ]
            }
        },
        {
            "type": "Feature",
            "properties": {
                "name": "BHMTX",
                "desc": ""
            },
            "geometry": {
                "type": "Point",
                "coordinates": [
                    -96.37,
                    30.22
                ]
            }
        },
        {
            "type": "Feature",
            "properties": {
                "name": "BVLTX",
                "desc": ""
            },
            "geometry": {
                "type": "Point",
                "coordinates": [
                    -97.79,
                    28.37
                ]
            }
        },
        {
            "type": "Feature",
            "properties": {
                "name": "CBENS",
                "desc": ""
            },
            "geometry": {
                "type": "Point",
                "coordinates": [
                    -66.1,
                    43.7
                ]
            }
        },
        {
            "type": "Feature",
            "properties": {
                "name": "CCDNH",
                "desc": ""
            },
            "geometry": {
                "type": "Point",
                "coordinates": [
                    -71.52,
                    43.21
                ]
            }
        },
        {
            "type": "Feature",
            "properties": {
                "name": "CXXKR",
                "desc": ""
            },
            "geometry": {
                "type": "Point",
                "coordinates": [
                    -157.4,
                    2
                ]
            }
        },
        {
            "type": "Feature",
            "properties": {
                "name": "EFDTX",
                "desc": ""
            },
            "geometry": {
                "type": "Point",
                "coordinates": [
                    -95.17,
                    29.61
                ]
            }
        },
        {
            "type": "Feature",
            "properties": {
                "name": "ERECO",
                "desc": ""
            },
            "geometry": {
                "type": "Point",
                "coordinates": [
                    -105.04,
                    40.1
                ]
            }
        },
        {
            "type": "Feature",
            "properties": {
                "name": "ERKCA",
                "desc": ""
            },
            "geometry": {
                "type": "Point",
                "coordinates": [
                    -124.22,
                    40.77
                ]
            }
        },
        {
            "type": "Feature",
            "properties": {
                "name": "ETOMX",
                "desc": ""
            },
            "geometry": {
                "type": "Point",
                "coordinates": [
                    -107.16,
                    24.28
                ]
            }
        },
        {
            "type": "Feature",
            "properties": {
                "name": "FHCAZ",
                "desc": ""
            },
            "geometry": {
                "type": "Point",
                "coordinates": [
                    -110.31,
                    31.51
                ]
            }
        },
        {
            "type": "Feature",
            "properties": {
                "name": "FMEMD",
                "desc": ""
            },
            "geometry": {
                "type": "Point",
                "coordinates": [
                    -76.72,
                    39.11
                ]
            }
        },
        {
            "type": "Feature",
            "properties": {
                "name": "FTHAZ",
                "desc": ""
            },
            "geometry": {
                "type": "Point",
                "coordinates": [
                    -110.31,
                    31.51
                ]
            }
        },
        {
            "type": "Feature",
            "properties": {
                "name": "GLACA",
                "desc": ""
            },
            "geometry": {
                "type": "Point",
                "coordinates": [
                    -119.85,
                    34.43
                ]
            }
        },
        {
            "type": "Feature",
            "properties": {
                "name": "GPCGA",
                "desc": ""
            },
            "geometry": {
                "type": "Point",
                "coordinates": [
                    -84.42,
                    33.78
                ]
            }
        },
        {
            "type": "Feature",
            "properties": {
                "name": "GVYCA",
                "desc": ""
            },
            "geometry": {
                "type": "Point",
                "coordinates": [
                    -121.11,
                    39.17
                ]
            }
        },
        {
            "type": "Feature",
            "properties": {
                "name": "GYXME",
                "desc": ""
            },
            "geometry": {
                "type": "Point",
                "coordinates": [
                    -70.3,
                    43.9
                ]
            }
        },
        {
            "type": "Feature",
            "properties": {
                "name": "HVETX",
                "desc": ""
            },
            "geometry": {
                "type": "Point",
                "coordinates": [
                    -95.64,
                    30.72
                ]
            }
        },
        {
            "type": "Feature",
            "properties": {
                "name": "LIVCA",
                "desc": ""
            },
            "geometry": {
                "type": "Point",
                "coordinates": [
                    -121.9,
                    37.7
                ]
            }
        },
        {
            "type": "Feature",
            "properties": {
                "name": "LVWTX",
                "desc": ""
            },
            "geometry": {
                "type": "Point",
                "coordinates": [
                    -94.71,
                    32.38
                ]
            }
        },
        {
            "type": "Feature",
            "properties": {
                "name": "MBAOR",
                "desc": ""
            },
            "geometry": {
                "type": "Point",
                "coordinates": [
                    -122.08,
                    44.18
                ]
            }
        },
        {
            "type": "Feature",
            "properties": {
                "name": "MDWNM",
                "desc": ""
            },
            "geometry": {
                "type": "Point",
                "coordinates": [
                    -106.43,
                    33.29
                ]
            }
        },
        {
            "type": "Feature",
            "properties": {
                "name": "MIPPP",
                "desc": ""
            },
            "geometry": {
                "type": "Point",
                "coordinates": [
                    147.43,
                    -2.06
                ]
            }
        },
        {
            "type": "Feature",
            "properties": {
                "name": "NPTOR",
                "desc": ""
            },
            "geometry": {
                "type": "Point",
                "coordinates": [
                    -124.06,
                    44.6
                ]
            }
        },
        {
            "type": "Feature",
            "properties": {
                "name": "NRMOK",
                "desc": ""
            },
            "geometry": {
                "type": "Point",
                "coordinates": [
                    -97.46,
                    35.24
                ]
            }
        },
        {
            "type": "Feature",
            "properties": {
                "name": "NRUNR",
                "desc": ""
            },
            "geometry": {
                "type": "Point",
                "coordinates": [
                    166.92,
                    -0.54
                ]
            }
        },
        {
            "type": "Feature",
            "properties": {
                "name": "NWTNM",
                "desc": ""
            },
            "geometry": {
                "type": "Point",
                "coordinates": [
                    -106.5,
                    32.9
                ]
            }
        },
        {
            "type": "Feature",
            "properties": {
                "name": "OREMA",
                "desc": ""
            },
            "geometry": {
                "type": "Point",
                "coordinates": [
                    -72.29,
                    42.57
                ]
            }
        },
        {
            "type": "Feature",
            "properties": {
                "name": "OXFKS",
                "desc": ""
            },
            "geometry": {
                "type": "Point",
                "coordinates": [
                    -97.09,
                    37.27
                ]
            }
        },
        {
            "type": "Feature",
            "properties": {
                "name": "PITPA",
                "desc": ""
            },
            "geometry": {
                "type": "Point",
                "coordinates": [
                    -80.26,
                    40.48
                ]
            }
        },
        {
            "type": "Feature",
            "properties": {
                "name": "PRPPE",
                "desc": ""
            },
            "geometry": {
                "type": "Point",
                "coordinates": [
                    -80.59,
                    -5.11
                ]
            }
        },
        {
            "type": "Feature",
            "properties": {
                "name": "PSENH",
                "desc": ""
            },
            "geometry": {
                "type": "Point",
                "coordinates": [
                    -70.83,
                    43.09
                ]
            }
        },
        {
            "type": "Feature",
            "properties": {
                "name": "PSPNY",
                "desc": ""
            },
            "geometry": {
                "type": "Point",
                "coordinates": [
                    -77.21,
                    42.09
                ]
            }
        },
        {
            "type": "Feature",
            "properties": {
                "name": "PYMMA",
                "desc": ""
            },
            "geometry": {
                "type": "Point",
                "coordinates": [
                    -70.73,
                    41.91
                ]
            }
        },
        {
            "type": "Feature",
            "properties": {
                "name": "RKNFL",
                "desc": ""
            },
            "geometry": {
                "type": "Point",
                "coordinates": [
                    -82.47,
                    27.74
                ]
            }
        },
        {
            "type": "Feature",
            "properties": {
                "name": "RMACO",
                "desc": ""
            },
            "geometry": {
                "type": "Point",
                "coordinates": [
                    -104.87,
                    39.83
                ]
            }
        },
        {
            "type": "Feature",
            "properties": {
                "name": "RMDCA",
                "desc": ""
            },
            "geometry": {
                "type": "Point",
                "coordinates": [
                    -122.4,
                    37.95
                ]
            }
        },
        {
            "type": "Feature",
            "properties": {
                "name": "SCGEC",
                "desc": ""
            },
            "geometry": {
                "type": "Point",
                "coordinates": [
                    -89.61,
                    -0.9
                ]
            }
        },
        {
            "type": "Feature",
            "properties": {
                "name": "SCHNY",
                "desc": ""
            },
            "geometry": {
                "type": "Point",
                "coordinates": [
                    -73.93,
                    42.85
                ]
            }
        },
        {
            "type": "Feature",
            "properties": {
                "name": "SFNCA",
                "desc": ""
            },
            "geometry": {
                "type": "Point",
                "coordinates": [
                    -118.36,
                    34.3
                ]
            }
        },
        {
            "type": "Feature",
            "properties": {
                "name": "SMILA",
                "desc": ""
            },
            "geometry": {
                "type": "Point",
                "coordinates": [
                    -91.91,
                    28.14
                ]
            }
        },
        {
            "type": "Feature",
            "properties": {
                "name": "SNICA",
                "desc": ""
            },
            "geometry": {
                "type": "Point",
                "coordinates": [
                    -119.52,
                    33.28
                ]
            }
        },
        {
            "type": "Feature",
            "properties": {
                "name": "SNRTX",
                "desc": ""
            },
            "geometry": {
                "type": "Point",
                "coordinates": [
                    -100.57,
                    30.26
                ]
            }
        },
        {
            "type": "Feature",
            "properties": {
                "name": "SNYFL",
                "desc": ""
            },
            "geometry": {
                "type": "Point",
                "coordinates": [
                    -82.23,
                    27.97
                ]
            }
        },
        {
            "type": "Feature",
            "properties": {
                "name": "SPBFL",
                "desc": ""
            },
            "geometry": {
                "type": "Point",
                "coordinates": [
                    -82.61,
                    27.85
                ]
            }
        },
        {
            "type": "Feature",
            "properties": {
                "name": "STCCA",
                "desc": ""
            },
            "geometry": {
                "type": "Point",
                "coordinates": [
                    -119.12,
                    34.29
                ]
            }
        },
        {
            "type": "Feature",
            "properties": {
                "name": "STSCT",
                "desc": ""
            },
            "geometry": {
                "type": "Point",
                "coordinates": [
                    -72.29,
                    41.79
                ]
            }
        },
        {
            "type": "Feature",
            "properties": {
                "name": "TBMCO",
                "desc": ""
            },
            "geometry": {
                "type": "Point",
                "coordinates": [
                    -105.24,
                    40.13
                ]
            }
        },
        {
            "type": "Feature",
            "properties": {
                "name": "TRWKR",
                "desc": ""
            },
            "geometry": {
                "type": "Point",
                "coordinates": [
                    172.92,
                    1.36
                ]
            }
        },
        {
            "type": "Feature",
            "properties": {
                "name": "VRMLA",
                "desc": ""
            },
            "geometry": {
                "type": "Point",
                "coordinates": [
                    -92.55,
                    29.46
                ]
            }
        },
        {
            "type": "Feature",
            "properties": {
                "name": "WFDCA",
                "desc": ""
            },
            "geometry": {
                "type": "Point",
                "coordinates": [
                    -120.67,
                    37.65
                ]
            }
        },
        {
            "type": "Feature",
            "properties": {
                "name": "WHWKS",
                "desc": ""
            },
            "geometry": {
                "type": "Point",
                "coordinates": [
                    -97.19,
                    37.84
                ]
            }
        },
        {
            "type": "Feature",
            "properties": {
                "name": "406JP",
                "desc": ""
            },
            "geometry": {
                "type": "Point",
                "coordinates": [
                    141.64,
                    43.94
                ]
            }
        },
        {
            "type": "Feature",
            "properties": {
                "name": "417JP",
                "desc": ""
            },
            "geometry": {
                "type": "Point",
                "coordinates": [
                    143.22,
                    42.92
                ]
            }
        },
        {
            "type": "Feature",
            "properties": {
                "name": "423JP",
                "desc": ""
            },
            "geometry": {
                "type": "Point",
                "coordinates": [
                    140.97,
                    42.32
                ]
            }
        },
        {
            "type": "Feature",
            "properties": {
                "name": "585JP",
                "desc": ""
            },
            "geometry": {
                "type": "Point",
                "coordinates": [
                    141.97,
                    39.65
                ]
            }
        },
        {
            "type": "Feature",
            "properties": {
                "name": "587JP",
                "desc": ""
            },
            "geometry": {
                "type": "Point",
                "coordinates": [
                    139.85,
                    38.91
                ]
            }
        },
        {
            "type": "Feature",
            "properties": {
                "name": "612JP",
                "desc": ""
            },
            "geometry": {
                "type": "Point",
                "coordinates": [
                    138.25,
                    37.1
                ]
            }
        },
        {
            "type": "Feature",
            "properties": {
                "name": "616JP",
                "desc": ""
            },
            "geometry": {
                "type": "Point",
                "coordinates": [
                    136.23,
                    36.05
                ]
            }
        },
        {
            "type": "Feature",
            "properties": {
                "name": "626JP",
                "desc": ""
            },
            "geometry": {
                "type": "Point",
                "coordinates": [
                    139.38,
                    36.15
                ]
            }
        },
        {
            "type": "Feature",
            "properties": {
                "name": "629JP",
                "desc": ""
            },
            "geometry": {
                "type": "Point",
                "coordinates": [
                    140.47,
                    36.38
                ]
            }
        },
        {
            "type": "Feature",
            "properties": {
                "name": "636JP",
                "desc": ""
            },
            "geometry": {
                "type": "Point",
                "coordinates": [
                    136.97,
                    35.17
                ]
            }
        },
        {
            "type": "Feature",
            "properties": {
                "name": "640JP",
                "desc": ""
            },
            "geometry": {
                "type": "Point",
                "coordinates": [
                    138.76,
                    35.5
                ]
            }
        },
        {
            "type": "Feature",
            "properties": {
                "name": "656JP",
                "desc": ""
            },
            "geometry": {
                "type": "Point",
                "coordinates": [
                    138.41,
                    34.97
                ]
            }
        },
        {
            "type": "Feature",
            "properties": {
                "name": "663JP",
                "desc": ""
            },
            "geometry": {
                "type": "Point",
                "coordinates": [
                    136.2,
                    34.07
                ]
            }
        },
        {
            "type": "Feature",
            "properties": {
                "name": "674JP",
                "desc": ""
            },
            "geometry": {
                "type": "Point",
                "coordinates": [
                    140.32,
                    35.15
                ]
            }
        },
        {
            "type": "Feature",
            "properties": {
                "name": "678JP",
                "desc": ""
            },
            "geometry": {
                "type": "Point",
                "coordinates": [
                    139.78,
                    33.12
                ]
            }
        },
        {
            "type": "Feature",
            "properties": {
                "name": "746JP",
                "desc": ""
            },
            "geometry": {
                "type": "Point",
                "coordinates": [
                    134.2,
                    35.53
                ]
            }
        },
        {
            "type": "Feature",
            "properties": {
                "name": "755JP",
                "desc": ""
            },
            "geometry": {
                "type": "Point",
                "coordinates": [
                    132.07,
                    34.89
                ]
            }
        },
        {
            "type": "Feature",
            "properties": {
                "name": "795JP",
                "desc": ""
            },
            "geometry": {
                "type": "Point",
                "coordinates": [
                    135.13,
                    33.9
                ]
            }
        },
        {
            "type": "Feature",
            "properties": {
                "name": "800JP",
                "desc": ""
            },
            "geometry": {
                "type": "Point",
                "coordinates": [
                    129.23,
                    34.15
                ]
            }
        },
        {
            "type": "Feature",
            "properties": {
                "name": "805JP",
                "desc": ""
            },
            "geometry": {
                "type": "Point",
                "coordinates": [
                    129.55,
                    33.36
                ]
            }
        },
        {
            "type": "Feature",
            "properties": {
                "name": "815JP",
                "desc": ""
            },
            "geometry": {
                "type": "Point",
                "coordinates": [
                    131.62,
                    33.23
                ]
            }
        },
        {
            "type": "Feature",
            "properties": {
                "name": "819JP",
                "desc": ""
            },
            "geometry": {
                "type": "Point",
                "coordinates": [
                    130.71,
                    32.81
                ]
            }
        },
        {
            "type": "Feature",
            "properties": {
                "name": "822JP",
                "desc": ""
            },
            "geometry": {
                "type": "Point",
                "coordinates": [
                    131.66,
                    32.58
                ]
            }
        },
        {
            "type": "Feature",
            "properties": {
                "name": "836JP",
                "desc": ""
            },
            "geometry": {
                "type": "Point",
                "coordinates": [
                    130.66,
                    30.38
                ]
            }
        },
        {
            "type": "Feature",
            "properties": {
                "name": "848JP",
                "desc": ""
            },
            "geometry": {
                "type": "Point",
                "coordinates": [
                    130.32,
                    31.71
                ]
            }
        },
        {
            "type": "Feature",
            "properties": {
                "name": "891JP",
                "desc": ""
            },
            "geometry": {
                "type": "Point",
                "coordinates": [
                    134.06,
                    34.31
                ]
            }
        },
        {
            "type": "Feature",
            "properties": {
                "name": "893JP",
                "desc": ""
            },
            "geometry": {
                "type": "Point",
                "coordinates": [
                    133.55,
                    33.57
                ]
            }
        },
        {
            "type": "Feature",
            "properties": {
                "name": "898JP",
                "desc": ""
            },
            "geometry": {
                "type": "Point",
                "coordinates": [
                    133.01,
                    32.72
                ]
            }
        },
        {
            "type": "Feature",
            "properties": {
                "name": "909JP",
                "desc": ""
            },
            "geometry": {
                "type": "Point",
                "coordinates": [
                    129.5,
                    28.38
                ]
            }
        },
        {
            "type": "Feature",
            "properties": {
                "name": "912JP",
                "desc": ""
            },
            "geometry": {
                "type": "Point",
                "coordinates": [
                    123.01,
                    24.46
                ]
            }
        },
        {
            "type": "Feature",
            "properties": {
                "name": "945JP",
                "desc": ""
            },
            "geometry": {
                "type": "Point",
                "coordinates": [
                    131.23,
                    25.83
                ]
            }
        },
        {
            "type": "Feature",
            "properties": {
                "name": "HK1CN",
                "desc": ""
            },
            "geometry": {
                "type": "Point",
                "coordinates": [
                    114.17,
                    22.33
                ]
            }
        },
        {
            "type": "Feature",
            "properties": {
                "name": "KATHI",
                "desc": ""
            },
            "geometry": {
                "type": "Point",
                "coordinates": [
                    -157.757353,
                    21.437586
                ]
            }
        },
        {
            "type": "Feature",
            "properties": {
                "name": "KHWHI",
                "desc": ""
            },
            "geometry": {
                "type": "Point",
                "coordinates": [
                    -156.5389,
                    20.810267
                ]
            }
        },
        {
            "type": "Feature",
            "properties": {
                "name": "NAAHI",
                "desc": ""
            },
            "geometry": {
                "type": "Point",
                "coordinates": [
                    -155.585203,
                    19.037431
                ]
            }
        },
        {
            "type": "Feature",
            "properties": {
                "name": "PRAPE",
                "desc": ""
            },
            "geometry": {
                "type": "Point",
                "coordinates": [
                    -80.64,
                    -5.17
                ]
            }
        },
        {
            "type": "Feature",
            "properties": {
                "name": "SPTHI",
                "desc": ""
            },
            "geometry": {
                "type": "Point",
                "coordinates": [
                    -155.682211,
                    18.914722
                ]
            }
        },
        {
            "type": "Feature",
            "properties": {
                "name": "WAEHI",
                "desc": ""
            },
            "geometry": {
                "type": "Point",
                "coordinates": [
                    -156.413693,
                    20.848046
                ]
            }
        },
        {
            "type": "Feature",
            "properties": {
                "name": "AFSNM",
                "desc": ""
            },
            "geometry": {
                "type": "Point",
                "coordinates": [
                    -106.56,
                    33.65
                ]
            }
        },
        {
            "type": "Feature",
            "properties": {
                "name": "AN2NE",
                "desc": ""
            },
            "geometry": {
                "type": "Point",
                "coordinates": [
                    -100.001,
                    42.581
                ]
            }
        },
        {
            "type": "Feature",
            "properties": {
                "name": "ANWNE",
                "desc": ""
            },
            "geometry": {
                "type": "Point",
                "coordinates": [
                    -100,
                    42.58
                ]
            }
        },
        {
            "type": "Feature",
            "properties": {
                "name": "APCNM",
                "desc": ""
            },
            "geometry": {
                "type": "Point",
                "coordinates": [
                    -106.4,
                    32.63
                ]
            }
        },
        {
            "type": "Feature",
            "properties": {
                "name": "ARMOK",
                "desc": ""
            },
            "geometry": {
                "type": "Point",
                "coordinates": [
                    -97.4857624492,
                    36.6054546171
                ]
            }
        },
        {
            "type": "Feature",
            "properties": {
                "name": "ATACA",
                "desc": ""
            },
            "geometry": {
                "type": "Point",
                "coordinates": [
                    -120.82,
                    39.2
                ]
            }
        },
        {
            "type": "Feature",
            "properties": {
                "name": "BACCO",
                "desc": ""
            },
            "geometry": {
                "type": "Point",
                "coordinates": [
                    -105,
                    40.05
                ]
            }
        },
        {
            "type": "Feature",
            "properties": {
                "name": "BBYCA",
                "desc": ""
            },
            "geometry": {
                "type": "Point",
                "coordinates": [
                    -123.07,
                    38.32
                ]
            }
        },
        {
            "type": "Feature",
            "properties": {
                "name": "BD2TX",
                "desc": ""
            },
            "geometry": {
                "type": "Point",
                "coordinates": [
                    -99.32607,
                    31.17506
                ]
            }
        },
        {
            "type": "Feature",
            "properties": {
                "name": "BDYTX",
                "desc": ""
            },
            "geometry": {
                "type": "Point",
                "coordinates": [
                    -99.326,
                    31.175
                ]
            }
        },
        {
            "type": "Feature",
            "properties": {
                "name": "BF2SD",
                "desc": ""
            },
            "geometry": {
                "type": "Point",
                "coordinates": [
                    -103.53494,
                    45.57824
                ]
            }
        },
        {
            "type": "Feature",
            "properties": {
                "name": "BFLSD",
                "desc": ""
            },
            "geometry": {
                "type": "Point",
                "coordinates": [
                    -103.535,
                    45.578
                ]
            }
        },
        {
            "type": "Feature",
            "properties": {
                "name": "BJYNV",
                "desc": ""
            },
            "geometry": {
                "type": "Point",
                "coordinates": [
                    -116.05,
                    37.05
                ]
            }
        },
        {
            "type": "Feature",
            "properties": {
                "name": "BKFCA",
                "desc": ""
            },
            "geometry": {
                "type": "Point",
                "coordinates": [
                    -118.96,
                    35.35
                ]
            }
        },
        {
            "type": "Feature",
            "properties": {
                "name": "BLTMD",
                "desc": ""
            },
            "geometry": {
                "type": "Point",
                "coordinates": [
                    -76.8785,
                    39.0554
                ]
            }
        },
        {
            "type": "Feature",
            "properties": {
                "name": "BMTKS",
                "desc": ""
            },
            "geometry": {
                "type": "Point",
                "coordinates": [
                    -96.5370610604,
                    37.6325992827
                ]
            }
        },
        {
            "type": "Feature",
            "properties": {
                "name": "BPATX",
                "desc": ""
            },
            "geometry": {
                "type": "Point",
                "coordinates": [
                    -94.1,
                    30.1
                ]
            }
        },
        {
            "type": "Feature",
            "properties": {
                "name": "BRZ19",
                "desc": ""
            },
            "geometry": {
                "type": "Point",
                "coordinates": [
                    -95.6,
                    28.2
                ]
            }
        },
        {
            "type": "Feature",
            "properties": {
                "name": "CARON",
                "desc": ""
            },
            "geometry": {
                "type": "Point",
                "coordinates": [
                    -79.79,
                    44.23
                ]
            }
        },
        {
            "type": "Feature",
            "properties": {
                "name": "CC2TX",
                "desc": ""
            },
            "geometry": {
                "type": "Point",
                "coordinates": [
                    -100.921,
                    32.47215
                ]
            }
        },
        {
            "type": "Feature",
            "properties": {
                "name": "CCDLA",
                "desc": ""
            },
            "geometry": {
                "type": "Point",
                "coordinates": [
                    -90.66,
                    29.25
                ]
            }
        },
        {
            "type": "Feature",
            "properties": {
                "name": "CCLCA",
                "desc": ""
            },
            "geometry": {
                "type": "Point",
                "coordinates": [
                    -120.24,
                    37.11
                ]
            }
        },
        {
            "type": "Feature",
            "properties": {
                "name": "CCOCA",
                "desc": ""
            },
            "geometry": {
                "type": "Point",
                "coordinates": [
                    -121.91,
                    39.69
                ]
            }
        },
        {
            "type": "Feature",
            "properties": {
                "name": "CCRCA",
                "desc": ""
            },
            "geometry": {
                "type": "Point",
                "coordinates": [
                    -122.06,
                    37.99
                ]
            }
        },
        {
            "type": "Feature",
            "properties": {
                "name": "CFCCA",
                "desc": ""
            },
            "geometry": {
                "type": "Point",
                "coordinates": [
                    -120.94,
                    39.08
                ]
            }
        },
        {
            "type": "Feature",
            "properties": {
                "name": "CFFCA",
                "desc": ""
            },
            "geometry": {
                "type": "Point",
                "coordinates": [
                    -120.9378,
                    39.0795
                ]
            }
        },
        {
            "type": "Feature",
            "properties": {
                "name": "CHANC",
                "desc": ""
            },
            "geometry": {
                "type": "Point",
                "coordinates": [
                    -80.93,
                    35.21
                ]
            }
        },
        {
            "type": "Feature",
            "properties": {
                "name": "CJKFL",
                "desc": ""
            },
            "geometry": {
                "type": "Point",
                "coordinates": [
                    -81.5,
                    24.7
                ]
            }
        },
        {
            "type": "Feature",
            "properties": {
                "name": "CLETX",
                "desc": ""
            },
            "geometry": {
                "type": "Point",
                "coordinates": [
                    -97.44,
                    32.35
                ]
            }
        },
        {
            "type": "Feature",
            "properties": {
                "name": "COCTX",
                "desc": ""
            },
            "geometry": {
                "type": "Point",
                "coordinates": [
                    -100.92,
                    32.47
                ]
            }
        },
        {
            "type": "Feature",
            "properties": {
                "name": "CPTTX",
                "desc": ""
            },
            "geometry": {
                "type": "Point",
                "coordinates": [
                    -97.435409,
                    32.353854
                ]
            }
        },
        {
            "type": "Feature",
            "properties": {
                "name": "CXECA",
                "desc": ""
            },
            "geometry": {
                "type": "Point",
                "coordinates": [
                    -115.4,
                    32.7
                ]
            }
        },
        {
            "type": "Feature",
            "properties": {
                "name": "CZCCA",
                "desc": ""
            },
            "geometry": {
                "type": "Point",
                "coordinates": [
                    -123.22,
                    38.61
                ]
            }
        },
        {
            "type": "Feature",
            "properties": {
                "name": "DALNS",
                "desc": ""
            },
            "geometry": {
                "type": "Point",
                "coordinates": [
                    -63.6,
                    44.6
                ]
            }
        },
        {
            "type": "Feature",
            "properties": {
                "name": "DEMNM",
                "desc": ""
            },
            "geometry": {
                "type": "Point",
                "coordinates": [
                    -107.86,
                    32.03
                ]
            }
        },
        {
            "type": "Feature",
            "properties": {
                "name": "DGNAK",
                "desc": ""
            },
            "geometry": {
                "type": "Point",
                "coordinates": [
                    -134.56,
                    58.34
                ]
            }
        },
        {
            "type": "Feature",
            "properties": {
                "name": "DGSAK",
                "desc": ""
            },
            "geometry": {
                "type": "Point",
                "coordinates": [
                    -134.39,
                    58.28
                ]
            }
        },
        {
            "type": "Feature",
            "properties": {
                "name": "DGWUT",
                "desc": ""
            },
            "geometry": {
                "type": "Point",
                "coordinates": [
                    -113,
                    40.1
                ]
            }
        },
        {
            "type": "Feature",
            "properties": {
                "name": "DHSNM",
                "desc": ""
            },
            "geometry": {
                "type": "Point",
                "coordinates": [
                    -106.3,
                    33.2
                ]
            }
        },
        {
            "type": "Feature",
            "properties": {
                "name": "DS2SD",
                "desc": ""
            },
            "geometry": {
                "type": "Point",
                "coordinates": [
                    -97.55575,
                    44.43268
                ]
            }
        },
        {
            "type": "Feature",
            "properties": {
                "name": "DSTSD",
                "desc": ""
            },
            "geometry": {
                "type": "Point",
                "coordinates": [
                    -97.56,
                    44.43
                ]
            }
        },
        {
            "type": "Feature",
            "properties": {
                "name": "EGPTX",
                "desc": ""
            },
            "geometry": {
                "type": "Point",
                "coordinates": [
                    -100.28,
                    28.39
                ]
            }
        },
        {
            "type": "Feature",
            "properties": {
                "name": "EPKCO",
                "desc": ""
            },
            "geometry": {
                "type": "Point",
                "coordinates": [
                    -105.51,
                    40.38
                ]
            }
        },
        {
            "type": "Feature",
            "properties": {
                "name": "EPSTX",
                "desc": ""
            },
            "geometry": {
                "type": "Point",
                "coordinates": [
                    -106.5,
                    31.77
                ]
            }
        },
        {
            "type": "Feature",
            "properties": {
                "name": "FCPFL",
                "desc": ""
            },
            "geometry": {
                "type": "Point",
                "coordinates": [
                    -80.6,
                    28.6
                ]
            }
        },
        {
            "type": "Feature",
            "properties": {
                "name": "FHAAZ",
                "desc": ""
            },
            "geometry": {
                "type": "Point",
                "coordinates": [
                    -110.3,
                    31.49
                ]
            }
        },
        {
            "type": "Feature",
            "properties": {
                "name": "FHHAZ",
                "desc": ""
            },
            "geometry": {
                "type": "Point",
                "coordinates": [
                    -110.3,
                    31.6
                ]
            }
        },
        {
            "type": "Feature",
            "properties": {
                "name": "GLAMN",
                "desc": ""
            },
            "geometry": {
                "type": "Point",
                "coordinates": [
                    -96.26,
                    47.72
                ]
            }
        },
        {
            "type": "Feature",
            "properties": {
                "name": "GLBCA",
                "desc": ""
            },
            "geometry": {
                "type": "Point",
                "coordinates": [
                    -119.85,
                    34.43
                ]
            }
        },
        {
            "type": "Feature",
            "properties": {
                "name": "GMNCA",
                "desc": ""
            },
            "geometry": {
                "type": "Point",
                "coordinates": [
                    -118.8,
                    34.72
                ]
            }
        },
        {
            "type": "Feature",
            "properties": {
                "name": "GRICA",
                "desc": ""
            },
            "geometry": {
                "type": "Point",
                "coordinates": [
                    -121.9,
                    38.1
                ]
            }
        },
        {
            "type": "Feature",
            "properties": {
                "name": "HGDUT",
                "desc": ""
            },
            "geometry": {
                "type": "Point",
                "coordinates": [
                    -113.2,
                    40.2
                ]
            }
        },
        {
            "type": "Feature",
            "properties": {
                "name": "HPLMD",
                "desc": ""
            },
            "geometry": {
                "type": "Point",
                "coordinates": [
                    -76.14,
                    38.59
                ]
            }
        },
        {
            "type": "Feature",
            "properties": {
                "name": "HSCNV",
                "desc": ""
            },
            "geometry": {
                "type": "Point",
                "coordinates": [
                    -115.95,
                    36.8
                ]
            }
        },
        {
            "type": "Feature",
            "properties": {
                "name": "HSNTX",
                "desc": ""
            },
            "geometry": {
                "type": "Point",
                "coordinates": [
                    -95.04,
                    29.39
                ]
            }
        },
        {
            "type": "Feature",
            "properties": {
                "name": "IRVCA",
                "desc": ""
            },
            "geometry": {
                "type": "Point",
                "coordinates": [
                    -117.73,
                    33.69
                ]
            }
        },
        {
            "type": "Feature",
            "properties": {
                "name": "JTNTX",
                "desc": ""
            },
            "geometry": {
                "type": "Point",
                "coordinates": [
                    -100.981,
                    33.011
                ]
            }
        },
        {
            "type": "Feature",
            "properties": {
                "name": "JY2MN",
                "desc": ""
            },
            "geometry": {
                "type": "Point",
                "coordinates": [
                    -94.551,
                    43.9691
                ]
            }
        },
        {
            "type": "Feature",
            "properties": {
                "name": "JYGMN",
                "desc": ""
            },
            "geometry": {
                "type": "Point",
                "coordinates": [
                    -94.55,
                    43.969
                ]
            }
        },
        {
            "type": "Feature",
            "properties": {
                "name": "KSCFL",
                "desc": ""
            },
            "geometry": {
                "type": "Point",
                "coordinates": [
                    -80.7,
                    28.63
                ]
            }
        },
        {
            "type": "Feature",
            "properties": {
                "name": "LAXCA",
                "desc": ""
            },
            "geometry": {
                "type": "Point",
                "coordinates": [
                    -118.44,
                    33.94
                ]
            }
        },
        {
            "type": "Feature",
            "properties": {
                "name": "LBKTX",
                "desc": ""
            },
            "geometry": {
                "type": "Point",
                "coordinates": [
                    -102,
                    33.5
                ]
            }
        },
        {
            "type": "Feature",
            "properties": {
                "name": "LD2ND",
                "desc": ""
            },
            "geometry": {
                "type": "Point",
                "coordinates": [
                    -99.41,
                    48.281
                ]
            }
        },
        {
            "type": "Feature",
            "properties": {
                "name": "LDSND",
                "desc": ""
            },
            "geometry": {
                "type": "Point",
                "coordinates": [
                    -99.398,
                    48.283
                ]
            }
        },
        {
            "type": "Feature",
            "properties": {
                "name": "LHSCA",
                "desc": ""
            },
            "geometry": {
                "type": "Point",
                "coordinates": [
                    -119.69,
                    35.62
                ]
            }
        },
        {
            "type": "Feature",
            "properties": {
                "name": "LJSPR",
                "desc": ""
            },
            "geometry": {
                "type": "Point",
                "coordinates": [
                    -67.08,
                    17.98
                ]
            }
        },
        {
            "type": "Feature",
            "properties": {
                "name": "LMCAK",
                "desc": ""
            },
            "geometry": {
                "type": "Point",
                "coordinates": [
                    -134.51,
                    58.36
                ]
            }
        },
        {
            "type": "Feature",
            "properties": {
                "name": "LMNOK",
                "desc": ""
            },
            "geometry": {
                "type": "Point",
                "coordinates": [
                    -97.4868558526,
                    36.6018537296
                ]
            }
        },
        {
            "type": "Feature",
            "properties": {
                "name": "LPTTX",
                "desc": ""
            },
            "geometry": {
                "type": "Point",
                "coordinates": [
                    -95.1,
                    29.7
                ]
            }
        },
        {
            "type": "Feature",
            "properties": {
                "name": "LVRCA",
                "desc": ""
            },
            "geometry": {
                "type": "Point",
                "coordinates": [
                    -121.9,
                    37.7
                ]
            }
        },
        {
            "type": "Feature",
            "properties": {
                "name": "MBGSD",
                "desc": ""
            },
            "geometry": {
                "type": "Point",
                "coordinates": [
                    -100.406,
                    45.542
                ]
            }
        },
        {
            "type": "Feature",
            "properties": {
                "name": "MCGQU",
                "desc": ""
            },
            "geometry": {
                "type": "Point",
                "coordinates": [
                    -73.57,
                    45.5
                ]
            }
        },
        {
            "type": "Feature",
            "properties": {
                "name": "MDCKS",
                "desc": ""
            },
            "geometry": {
                "type": "Point",
                "coordinates": [
                    -98.93,
                    37.28
                ]
            }
        },
        {
            "type": "Feature",
            "properties": {
                "name": "MDYTX",
                "desc": ""
            },
            "geometry": {
                "type": "Point",
                "coordinates": [
                    -97.37,
                    31.34
                ]
            }
        },
        {
            "type": "Feature",
            "properties": {
                "name": "MFATX",
                "desc": ""
            },
            "geometry": {
                "type": "Point",
                "coordinates": [
                    -104.32,
                    30.43
                ]
            }
        },
        {
            "type": "Feature",
            "properties": {
                "name": "MIDFL",
                "desc": ""
            },
            "geometry": {
                "type": "Point",
                "coordinates": [
                    -80.7,
                    28.6
                ]
            }
        },
        {
            "type": "Feature",
            "properties": {
                "name": "MKROK",
                "desc": ""
            },
            "geometry": {
                "type": "Point",
                "coordinates": [
                    -96.9,
                    35.5
                ]
            }
        },
        {
            "type": "Feature",
            "properties": {
                "name": "MLNFL",
                "desc": ""
            },
            "geometry": {
                "type": "Point",
                "coordinates": [
                    -80.7,
                    28.7
                ]
            }
        },
        {
            "type": "Feature",
            "properties": {
                "name": "MMRCA",
                "desc": ""
            },
            "geometry": {
                "type": "Point",
                "coordinates": [
                    -117.1,
                    32.9
                ]
            }
        },
        {
            "type": "Feature",
            "properties": {
                "name": "MOVCA",
                "desc": ""
            },
            "geometry": {
                "type": "Point",
                "coordinates": [
                    -117.22,
                    33.87
                ]
            }
        },
        {
            "type": "Feature",
            "properties": {
                "name": "MPICA",
                "desc": ""
            },
            "geometry": {
                "type": "Point",
                "coordinates": [
                    -120.04,
                    37.51
                ]
            }
        },
        {
            "type": "Feature",
            "properties": {
                "name": "NBFTX",
                "desc": ""
            },
            "geometry": {
                "type": "Point",
                "coordinates": [
                    -98.12,
                    29.7
                ]
            }
        },
        {
            "type": "Feature",
            "properties": {
                "name": "NPSCA",
                "desc": ""
            },
            "geometry": {
                "type": "Point",
                "coordinates": [
                    -121.76,
                    36.69
                ]
            }
        },
        {
            "type": "Feature",
            "properties": {
                "name": "OHTCA",
                "desc": ""
            },
            "geometry": {
                "type": "Point",
                "coordinates": [
                    -119.63,
                    37.38
                ]
            }
        },
        {
            "type": "Feature",
            "properties": {
                "name": "ONTCA",
                "desc": ""
            },
            "geometry": {
                "type": "Point",
                "coordinates": [
                    -117.58,
                    34.06
                ]
            }
        },
        {
            "type": "Feature",
            "properties": {
                "name": "OZATX",
                "desc": ""
            },
            "geometry": {
                "type": "Point",
                "coordinates": [
                    -101.20352,
                    30.736368
                ]
            }
        },
        {
            "type": "Feature",
            "properties": {
                "name": "PAPAZ",
                "desc": ""
            },
            "geometry": {
                "type": "Point",
                "coordinates": [
                    -111.34,
                    32.51
                ]
            }
        },
        {
            "type": "Feature",
            "properties": {
                "name": "PNRMD",
                "desc": ""
            },
            "geometry": {
                "type": "Point",
                "coordinates": [
                    -79.0121,
                    39.7057
                ]
            }
        },
        {
            "type": "Feature",
            "properties": {
                "name": "PPBCA",
                "desc": ""
            },
            "geometry": {
                "type": "Point",
                "coordinates": [
                    -121.29,
                    35.66
                ]
            }
        },
        {
            "type": "Feature",
            "properties": {
                "name": "PTCCA",
                "desc": ""
            },
            "geometry": {
                "type": "Point",
                "coordinates": [
                    -121.89,
                    36.3
                ]
            }
        },
        {
            "type": "Feature",
            "properties": {
                "name": "PTLCA",
                "desc": ""
            },
            "geometry": {
                "type": "Point",
                "coordinates": [
                    -117.25,
                    32.7
                ]
            }
        },
        {
            "type": "Feature",
            "properties": {
                "name": "PTSCA",
                "desc": ""
            },
            "geometry": {
                "type": "Point",
                "coordinates": [
                    -121.89,
                    36.3
                ]
            }
        },
        {
            "type": "Feature",
            "properties": {
                "name": "RALNC",
                "desc": ""
            },
            "geometry": {
                "type": "Point",
                "coordinates": [
                    -78.46,
                    35.59
                ]
            }
        },
        {
            "type": "Feature",
            "properties": {
                "name": "RCHVA",
                "desc": ""
            },
            "geometry": {
                "type": "Point",
                "coordinates": [
                    -77.5,
                    37.6
                ]
            }
        },
        {
            "type": "Feature",
            "properties": {
                "name": "RCOFL",
                "desc": ""
            },
            "geometry": {
                "type": "Point",
                "coordinates": [
                    -80.8,
                    28.5
                ]
            }
        },
        {
            "type": "Feature",
            "properties": {
                "name": "RESTX",
                "desc": ""
            },
            "geometry": {
                "type": "Point",
                "coordinates": [
                    -102.0496,
                    33.61006
                ]
            }
        },
        {
            "type": "Feature",
            "properties": {
                "name": "RGCTX",
                "desc": ""
            },
            "geometry": {
                "type": "Point",
                "coordinates": [
                    -98.82,
                    26.57
                ]
            }
        },
        {
            "type": "Feature",
            "properties": {
                "name": "RGNTX",
                "desc": ""
            },
            "geometry": {
                "type": "Point",
                "coordinates": [
                    -101.474326,
                    31.203521
                ]
            }
        },
        {
            "type": "Feature",
            "properties": {
                "name": "RUTNJ",
                "desc": ""
            },
            "geometry": {
                "type": "Point",
                "coordinates": [
                    -74.45,
                    40.5
                ]
            }
        },
        {
            "type": "Feature",
            "properties": {
                "name": "RVDWA",
                "desc": ""
            },
            "geometry": {
                "type": "Point",
                "coordinates": [
                    -121.85,
                    47.31
                ]
            }
        },
        {
            "type": "Feature",
            "properties": {
                "name": "SACCA",
                "desc": ""
            },
            "geometry": {
                "type": "Point",
                "coordinates": [
                    -121.42,
                    38.3
                ]
            }
        },
        {
            "type": "Feature",
            "properties": {
                "name": "SCPFL",
                "desc": ""
            },
            "geometry": {
                "type": "Point",
                "coordinates": [
                    -80.6,
                    28.4
                ]
            }
        },
        {
            "type": "Feature",
            "properties": {
                "name": "SEAWA",
                "desc": ""
            },
            "geometry": {
                "type": "Point",
                "coordinates": [
                    -122.26,
                    47.69
                ]
            }
        },
        {
            "type": "Feature",
            "properties": {
                "name": "SHSCA",
                "desc": ""
            },
            "geometry": {
                "type": "Point",
                "coordinates": [
                    -121.21,
                    38.49
                ]
            }
        },
        {
            "type": "Feature",
            "properties": {
                "name": "SIMCA",
                "desc": ""
            },
            "geometry": {
                "type": "Point",
                "coordinates": [
                    -118.8,
                    34.3
                ]
            }
        },
        {
            "type": "Feature",
            "properties": {
                "name": "SNSCA",
                "desc": ""
            },
            "geometry": {
                "type": "Point",
                "coordinates": [
                    -119.52,
                    33.28
                ]
            }
        },
        {
            "type": "Feature",
            "properties": {
                "name": "SPDCA",
                "desc": ""
            },
            "geometry": {
                "type": "Point",
                "coordinates": [
                    -120.8,
                    39.13
                ]
            }
        },
        {
            "type": "Feature",
            "properties": {
                "name": "STDCA",
                "desc": ""
            },
            "geometry": {
                "type": "Point",
                "coordinates": [
                    -122.43,
                    40.72
                ]
            }
        },
        {
            "type": "Feature",
            "properties": {
                "name": "STWMA",
                "desc": ""
            },
            "geometry": {
                "type": "Point",
                "coordinates": [
                    -71.3,
                    42.5
                ]
            }
        },
        {
            "type": "Feature",
            "properties": {
                "name": "SUXIA",
                "desc": ""
            },
            "geometry": {
                "type": "Point",
                "coordinates": [
                    -96.39,
                    42.4
                ]
            }
        },
        {
            "type": "Feature",
            "properties": {
                "name": "SWYWA",
                "desc": ""
            },
            "geometry": {
                "type": "Point",
                "coordinates": [
                    -122.36,
                    47.08
                ]
            }
        },
        {
            "type": "Feature",
            "properties": {
                "name": "TCYCA",
                "desc": ""
            },
            "geometry": {
                "type": "Point",
                "coordinates": [
                    -121.3,
                    37.4
                ]
            }
        },
        {
            "type": "Feature",
            "properties": {
                "name": "TLGNM",
                "desc": ""
            },
            "geometry": {
                "type": "Point",
                "coordinates": [
                    -106.18,
                    33.07
                ]
            }
        },
        {
            "type": "Feature",
            "properties": {
                "name": "TRKCA",
                "desc": ""
            },
            "geometry": {
                "type": "Point",
                "coordinates": [
                    -120.14,
                    39.32
                ]
            }
        },
        {
            "type": "Feature",
            "properties": {
                "name": "VISCA",
                "desc": ""
            },
            "geometry": {
                "type": "Point",
                "coordinates": [
                    -119.39,
                    36.31
                ]
            }
        },
        {
            "type": "Feature",
            "properties": {
                "name": "VLCND",
                "desc": ""
            },
            "geometry": {
                "type": "Point",
                "coordinates": [
                    -98.082,
                    47.034
                ]
            }
        },
        {
            "type": "Feature",
            "properties": {
                "name": "WFCND",
                "desc": ""
            },
            "geometry": {
                "type": "Point",
                "coordinates": [
                    -103.259,
                    47.804
                ]
            }
        },
        {
            "type": "Feature",
            "properties": {
                "name": "WHPCA",
                "desc": ""
            },
            "geometry": {
                "type": "Point",
                "coordinates": [
                    -118.41,
                    34.26
                ]
            }
        },
        {
            "type": "Feature",
            "properties": {
                "name": "WILDE",
                "desc": ""
            },
            "geometry": {
                "type": "Point",
                "coordinates": [
                    -75.52,
                    39.73
                ]
            }
        },
        {
            "type": "Feature",
            "properties": {
                "name": "WPCWA",
                "desc": ""
            },
            "geometry": {
                "type": "Point",
                "coordinates": [
                    -124.11,
                    46.91
                ]
            }
        },
        {
            "type": "Feature",
            "properties": {
                "name": "WPTWA",
                "desc": ""
            },
            "geometry": {
                "type": "Point",
                "coordinates": [
                    -124.11,
                    46.91
                ]
            }
        },
        {
            "type": "Feature",
            "properties": {
                "name": "YMAAZ",
                "desc": ""
            },
            "geometry": {
                "type": "Point",
                "coordinates": [
                    -114.25,
                    33.01
                ]
            }
        },
        {
            "type": "Feature",
            "properties": {
                "name": "YUMAZ",
                "desc": ""
            },
            "geometry": {
                "type": "Point",
                "coordinates": [
                    -114.5,
                    32.8
                ]
            }
        }
    ]
}